{
"type": "FeatureCollection",
"name": "PPR_Program_Sites",
"crs": { "type": "name", "properties": { "name": "urn:ogc:def:crs:OGC:1.3:CRS84" } },
"features": [
{ "type": "Feature", "properties": { "park_name": "Awbury Park and Recreation Center", "dpp_asset_id": null, "program_type": "PPR_REC", "site_class": "A", "building": "Y", "gym": "N", "label_number": null, "comments": " ", "data_source": "Programs 10/2025", "objectid": 1 }, "geometry": { "type": "Point", "coordinates": [ -75.163634189168405, 40.053862669121798 ] } },
{ "type": "Feature", "properties": { "park_name": "Daniel Boyle Memorial Recreation Center", "dpp_asset_id": null, "program_type": "PPR_REC", "site_class": "A", "building": "Y", "gym": "N", "label_number": null, "comments": " ", "data_source": "Programs 10/2025", "objectid": 2 }, "geometry": { "type": "Point", "coordinates": [ -75.007510748368006, 40.122843172360596 ] } },
{ "type": "Feature", "properties": { "park_name": "Charles M Finley Playground", "dpp_asset_id": null, "program_type": "PPR_REC", "site_class": "A", "building": "Y", "gym": "Y", "label_number": null, "comments": " ", "data_source": "Programs 10/2025", "objectid": 3 }, "geometry": { "type": "Point", "coordinates": [ -75.169831905551703, 40.064686481146403 ] } },
{ "type": "Feature", "properties": { "park_name": "James Allen Shuler Playground", "dpp_asset_id": null, "program_type": "PPR_REC", "site_class": "A", "building": "Y", "gym": "N", "label_number": null, "comments": " ", "data_source": "Programs 10/2025", "objectid": 4 }, "geometry": { "type": "Point", "coordinates": [ -75.174763537869097, 40.002221225806501 ] } },
{ "type": "Feature", "properties": { "park_name": "Marian Anderson Recreation Center", "dpp_asset_id": null, "program_type": "PPR_REC", "site_class": "A", "building": "Y", "gym": "Y", "label_number": null, "comments": " ", "data_source": "Programs 10/2025", "objectid": 5 }, "geometry": { "type": "Point", "coordinates": [ -75.171519362616905, 39.942118531136998 ] } },
{ "type": "Feature", "properties": { "park_name": "Howard Sayre Morris Recreation Center", "dpp_asset_id": null, "program_type": "PPR_REC", "site_class": "A", "building": "Y", "gym": "N", "label_number": null, "comments": " ", "data_source": "Programs 10/2025", "objectid": 6 }, "geometry": { "type": "Point", "coordinates": [ -75.238566006575297, 39.956692584171201 ] } },
{ "type": "Feature", "properties": { "park_name": "Frank Glavin Playground", "dpp_asset_id": null, "program_type": "PPR_REC", "site_class": "A", "building": "Y", "gym": "N", "label_number": null, "comments": " ", "data_source": "Programs 10/2025", "objectid": 7 }, "geometry": { "type": "Point", "coordinates": [ -75.101296252612599, 39.986466010840402 ] } },
{ "type": "Feature", "properties": { "park_name": "East Fairmount Park", "dpp_asset_id": null, "program_type": "PPR_REC", "site_class": "A", "building": "Y", "gym": "Y", "label_number": null, "comments": "Located in East Fairmount Park", "data_source": "Programs 10/2025", "objectid": 8 }, "geometry": { "type": "Point", "coordinates": [ -75.18509125336, 39.969054766810899 ] } },
{ "type": "Feature", "properties": { "park_name": "John C Anderson Cultural Center", "dpp_asset_id": null, "program_type": "PPR_REC", "site_class": "A", "building": "Y", "gym": "N", "label_number": null, "comments": "Closed for Rebuild", "data_source": "Programs 10/2025", "objectid": 9 }, "geometry": { "type": "Point", "coordinates": [ -75.233242507221604, 39.995218248512998 ] } },
{ "type": "Feature", "properties": { "park_name": "William A Cibotti Recreation Center", "dpp_asset_id": null, "program_type": "PPR_REC", "site_class": "A", "building": "Y", "gym": "N", "label_number": null, "comments": " ", "data_source": "Programs 10/2025", "objectid": 10 }, "geometry": { "type": "Point", "coordinates": [ -75.248617001469199, 39.908161026684503 ] } },
{ "type": "Feature", "properties": { "park_name": "J Francis Finnegan Playground", "dpp_asset_id": null, "program_type": "PPR_REC", "site_class": "A", "building": "Y", "gym": "N", "label_number": null, "comments": " ", "data_source": "Programs 10/2025", "objectid": 11 }, "geometry": { "type": "Point", "coordinates": [ -75.231743194911999, 39.915272600379502 ] } },
{ "type": "Feature", "properties": { "park_name": "Commodore John Barry Playground", "dpp_asset_id": null, "program_type": "PPR_REC", "site_class": "A", "building": "Y", "gym": "N", "label_number": null, "comments": " ", "data_source": "Programs 10/2025", "objectid": 12 }, "geometry": { "type": "Point", "coordinates": [ -75.178758132705497, 39.915938000132897 ] } },
{ "type": "Feature", "properties": { "park_name": "Lawrence E Murphy Recreation Center", "dpp_asset_id": null, "program_type": "PPR_REC", "site_class": "A", "building": "Y", "gym": "Y", "label_number": null, "comments": " ", "data_source": "Programs 10/2025", "objectid": 13 }, "geometry": { "type": "Point", "coordinates": [ -75.154069831163497, 39.915641738274097 ] } },
{ "type": "Feature", "properties": { "park_name": "Thomas I Guerin Recreation Center", "dpp_asset_id": null, "program_type": "PPR_REC", "site_class": "A", "building": "Y", "gym": "Y", "label_number": null, "comments": " ", "data_source": "Programs 10/2025", "objectid": 14 }, "geometry": { "type": "Point", "coordinates": [ -75.173049607202699, 39.9228737079018 ] } },
{ "type": "Feature", "properties": { "park_name": "John J McCreesh Sr Playground", "dpp_asset_id": null, "program_type": "PPR_REC", "site_class": "A", "building": "Y", "gym": "N", "label_number": null, "comments": "", "data_source": "Programs 10/2025", "objectid": 15 }, "geometry": { "type": "Point", "coordinates": [ -75.240191741898101, 39.926137681588401 ] } },
{ "type": "Feature", "properties": { "park_name": "A Giuseppe DiSilvestro Playground", "dpp_asset_id": null, "program_type": "PPR_REC", "site_class": "A", "building": "Y", "gym": "N", "label_number": null, "comments": "Mixed use building with CHOP/Free Library/Public Health/PPR", "data_source": "Programs 10/2025", "objectid": 16 }, "geometry": { "type": "Point", "coordinates": [ -75.169962385143506, 39.929140045453302 ] } },
{ "type": "Feature", "properties": { "park_name": "George A Vare Recreation Center", "dpp_asset_id": null, "program_type": "PPR_REC", "site_class": "A", "building": "Y", "gym": "Y", "label_number": null, "comments": "2024-Rebuild Renovation Complete", "data_source": "Programs 10/2025", "objectid": 17 }, "geometry": { "type": "Point", "coordinates": [ -75.188862947538794, 39.931379878512502 ] } },
{ "type": "Feature", "properties": { "park_name": "Columbus Square", "dpp_asset_id": null, "program_type": "PPR_REC", "site_class": "A", "building": "Y", "gym": "N", "label_number": null, "comments": " ", "data_source": "Programs 10/2025", "objectid": 18 }, "geometry": { "type": "Point", "coordinates": [ -75.164349794426101, 39.933254222627198 ] } },
{ "type": "Feature", "properties": { "park_name": "Solomon Sacks Playground", "dpp_asset_id": null, "program_type": "PPR_REC", "site_class": "B", "building": "Y", "gym": "N", "label_number": null, "comments": " ", "data_source": "Programs 10/2025", "objectid": 19 }, "geometry": { "type": "Point", "coordinates": [ -75.151214070218103, 39.933790455768403 ] } },
{ "type": "Feature", "properties": { "park_name": "Dr Nicola Capitolo Playground", "dpp_asset_id": null, "program_type": "PPR_REC", "site_class": "A", "building": "Y", "gym": "N", "label_number": null, "comments": " ", "data_source": "Programs 10/2025", "objectid": 20 }, "geometry": { "type": "Point", "coordinates": [ -75.159482031066005, 39.9340058665179 ] } },
{ "type": "Feature", "properties": { "park_name": "Donald P Finnegan Recreation Center", "dpp_asset_id": null, "program_type": "PPR_REC", "site_class": "B", "building": "Y", "gym": "N", "label_number": null, "comments": " ", "data_source": "Programs 10/2025", "objectid": 21 }, "geometry": { "type": "Point", "coordinates": [ -75.192933087573905, 39.937746218659697 ] } },
{ "type": "Feature", "properties": { "park_name": "Charles H Chew Playground", "dpp_asset_id": null, "program_type": "PPR_REC", "site_class": "A", "building": "Y", "gym": "N", "label_number": null, "comments": " ", "data_source": "Programs 10/2025", "objectid": 22 }, "geometry": { "type": "Point", "coordinates": [ -75.174181002886996, 39.938168250319002 ] } },
{ "type": "Feature", "properties": { "park_name": "48th and Woodland Playground", "dpp_asset_id": null, "program_type": "PPR_REC", "site_class": "A", "building": "Y", "gym": "N", "label_number": null, "comments": " ", "data_source": "Programs 10/2025", "objectid": 23 }, "geometry": { "type": "Point", "coordinates": [ -75.209808291784398, 39.941956477992797 ] } },
{ "type": "Feature", "properties": { "park_name": "Walter Palumbo Recreation Center", "dpp_asset_id": null, "program_type": "PPR_REC", "site_class": "A", "building": "Y", "gym": "Y", "label_number": null, "comments": " ", "data_source": "Programs 10/2025", "objectid": 24 }, "geometry": { "type": "Point", "coordinates": [ -75.158487852858798, 39.941361939003201 ] } },
{ "type": "Feature", "properties": { "park_name": "Kingsessing Recreation Center", "dpp_asset_id": null, "program_type": "PPR_REC", "site_class": "A", "building": "Y", "gym": "Y", "label_number": null, "comments": "Rebuild complete 10/2025", "data_source": "Programs 10/2025", "objectid": 25 }, "geometry": { "type": "Point", "coordinates": [ -75.217012541149003, 39.942848458016002 ] } },
{ "type": "Feature", "properties": { "park_name": "Albert W Christy Sr Recreation Center", "dpp_asset_id": null, "program_type": "PPR_REC", "site_class": "A", "building": "Y", "gym": "Y", "label_number": null, "comments": "", "data_source": "Programs 10/2025", "objectid": 26 }, "geometry": { "type": "Point", "coordinates": [ -75.234412970650794, 39.948895014593298 ] } },
{ "type": "Feature", "properties": { "park_name": "Northern Liberties Recreation Center", "dpp_asset_id": null, "program_type": "PPR_REC", "site_class": "A", "building": "Y", "gym": "Y", "label_number": null, "comments": " ", "data_source": "Programs 10/2025", "objectid": 27 }, "geometry": { "type": "Point", "coordinates": [ -75.1434601913829, 39.962750689297003 ] } },
{ "type": "Feature", "properties": { "park_name": "Tiffany Fletcher Recreation Center", "dpp_asset_id": null, "program_type": "PPR_REC", "site_class": "A", "building": "Y", "gym": "N", "label_number": null, "comments": "Former name Mill Creek Playground and Recreation Center (12/2022).", "data_source": "Programs 10/2025", "objectid": 28 }, "geometry": { "type": "Point", "coordinates": [ -75.215817366838706, 39.965980374068302 ] } },
{ "type": "Feature", "properties": { "park_name": "Roberto Clemente Playground", "dpp_asset_id": null, "program_type": "PPR_REC", "site_class": "B", "building": "Y", "gym": "N", "label_number": null, "comments": " ", "data_source": "Programs 10/2025", "objectid": 29 }, "geometry": { "type": "Point", "coordinates": [ -75.1679388200902, 39.965719056436697 ] } },
{ "type": "Feature", "properties": { "park_name": "Miles Mack Playground", "dpp_asset_id": null, "program_type": "PPR_REC", "site_class": "A", "building": "Y", "gym": "N", "label_number": null, "comments": " ", "data_source": "Programs 10/2025", "objectid": 30 }, "geometry": { "type": "Point", "coordinates": [ -75.195621782849599, 39.967478970790999 ] } },
{ "type": "Feature", "properties": { "park_name": "Cobbs Creek Park", "dpp_asset_id": null, "program_type": "PPR_REC", "site_class": "B", "building": "Y", "gym": "N", "label_number": null, "comments": "Located within Cobbs Creek Park", "data_source": "Programs 10/2025", "objectid": 31 }, "geometry": { "type": "Point", "coordinates": [ -75.2503959725219, 39.969358648047702 ] } },
{ "type": "Feature", "properties": { "park_name": "Francisville Recreation Center", "dpp_asset_id": null, "program_type": "PPR_REC", "site_class": "A", "building": "Y", "gym": "N", "label_number": null, "comments": " ", "data_source": "Programs 10/2025", "objectid": 32 }, "geometry": { "type": "Point", "coordinates": [ -75.167129294819702, 39.968495377687098 ] } },
{ "type": "Feature", "properties": { "park_name": "Morris Park", "dpp_asset_id": null, "program_type": "PPR_REC", "site_class": "A", "building": "Y", "gym": "N", "label_number": null, "comments": "Located in Morris Park.", "data_source": "Programs 10/2025", "objectid": 33 }, "geometry": { "type": "Point", "coordinates": [ -75.256300447162005, 39.974458129689999 ] } },
{ "type": "Feature", "properties": { "park_name": "Fishtown Recreation Center", "dpp_asset_id": null, "program_type": "PPR_REC", "site_class": "A", "building": "Y", "gym": "N", "label_number": null, "comments": " ", "data_source": "Programs 10/2025", "objectid": 34 }, "geometry": { "type": "Point", "coordinates": [ -75.127804193671295, 39.971851936213497 ] } },
{ "type": "Feature", "properties": { "park_name": "Narcissa S Cruz Recreation Center", "dpp_asset_id": null, "program_type": "PPR_REC", "site_class": "A", "building": "Y", "gym": "N", "label_number": null, "comments": "Two Programmable Buildings on site.", "data_source": "Programs 10/2025", "objectid": 35 }, "geometry": { "type": "Point", "coordinates": [ -75.145348019518494, 39.973235481686999 ] } },
{ "type": "Feature", "properties": { "park_name": "Conestoga Community Playground", "dpp_asset_id": null, "program_type": "PPR_REC", "site_class": "A", "building": "Y", "gym": "N", "label_number": null, "comments": " ", "data_source": "Programs 10/2025", "objectid": 36 }, "geometry": { "type": "Point", "coordinates": [ -75.228112032023006, 39.975516669972201 ] } },
{ "type": "Feature", "properties": { "park_name": "Dan Shissler Recreation Center", "dpp_asset_id": null, "program_type": "PPR_REC", "site_class": "A", "building": "Y", "gym": "Y", "label_number": null, "comments": " ", "data_source": "Programs 10/2025", "objectid": 37 }, "geometry": { "type": "Point", "coordinates": [ -75.132336964304599, 39.977563611689199 ] } },
{ "type": "Feature", "properties": { "park_name": "Ernest L Tustin Recreation Center", "dpp_asset_id": null, "program_type": "PPR_REC", "site_class": "A", "building": "Y", "gym": "N", "label_number": null, "comments": " ", "data_source": "Programs 10/2025", "objectid": 38 }, "geometry": { "type": "Point", "coordinates": [ -75.240708907701304, 39.9818673517984 ] } },
{ "type": "Feature", "properties": { "park_name": "Dr Martin Luther King Jr Recreation Center", "dpp_asset_id": null, "program_type": "PPR_REC", "site_class": "A", "building": "Y", "gym": "Y", "label_number": null, "comments": " ", "data_source": "Programs 10/2025", "objectid": 39 }, "geometry": { "type": "Point", "coordinates": [ -75.169951314459894, 39.980816531736899 ] } },
{ "type": "Feature", "properties": { "park_name": "West Fairmount Park", "dpp_asset_id": null, "program_type": "PPR_REC", "site_class": "A", "building": "Y", "gym": "N", "label_number": null, "comments": "Located within West Fairmount Park.", "data_source": "Programs 10/2025", "objectid": 40 }, "geometry": { "type": "Point", "coordinates": [ -75.226585533148807, 39.9832616678638 ] } },
{ "type": "Feature", "properties": { "park_name": "Fletcher B Amos Playground", "dpp_asset_id": null, "program_type": "PPR_REC", "site_class": "A", "building": "Y", "gym": "N", "label_number": null, "comments": " ", "data_source": "Programs 10/2025", "objectid": 41 }, "geometry": { "type": "Point", "coordinates": [ -75.160299590447295, 39.981716594375499 ] } },
{ "type": "Feature", "properties": { "park_name": "Frederick Cione Playground", "dpp_asset_id": null, "program_type": "PPR_REC", "site_class": "A", "building": "Y", "gym": "N", "label_number": null, "comments": " ", "data_source": "Programs 10/2025", "objectid": 42 }, "geometry": { "type": "Point", "coordinates": [ -75.1184312957039, 39.981010373056399 ] } },
{ "type": "Feature", "properties": { "park_name": "8th and Diamond Playground", "dpp_asset_id": null, "program_type": "PPR_REC", "site_class": "A", "building": "Y", "gym": "N", "label_number": null, "comments": " ", "data_source": "Programs 10/2025", "objectid": 43 }, "geometry": { "type": "Point", "coordinates": [ -75.147450448063495, 39.983237170800997 ] } },
{ "type": "Feature", "properties": { "park_name": "Cohocksink Recreation Center", "dpp_asset_id": null, "program_type": "PPR_REC", "site_class": "A", "building": "Y", "gym": "Y", "label_number": null, "comments": " ", "data_source": "Programs 10/2025", "objectid": 44 }, "geometry": { "type": "Point", "coordinates": [ -75.112556961074304, 39.9841286167539 ] } },
{ "type": "Feature", "properties": { "park_name": "Eric W (Hank) Gathers Jr Recreation Center", "dpp_asset_id": null, "program_type": "PPR_REC", "site_class": "A", "building": "Y", "gym": "Y", "label_number": null, "comments": " ", "data_source": "Programs 10/2025", "objectid": 45 }, "geometry": { "type": "Point", "coordinates": [ -75.174848529562595, 39.9875900341126 ] } },
{ "type": "Feature", "properties": { "park_name": "Bernard Samuel Playground", "dpp_asset_id": null, "program_type": "PPR_REC", "site_class": "A", "building": "Y", "gym": "Y", "label_number": null, "comments": " ", "data_source": "Programs 10/2025", "objectid": 46 }, "geometry": { "type": "Point", "coordinates": [ -75.097000304881803, 39.9906862441443 ] } },
{ "type": "Feature", "properties": { "park_name": "12th and Cambria Playground", "dpp_asset_id": null, "program_type": "PPR_REC", "site_class": "A", "building": "Y", "gym": "N", "label_number": null, "comments": " ", "data_source": "Programs 10/2025", "objectid": 47 }, "geometry": { "type": "Point", "coordinates": [ -75.149786675173402, 39.996816641479398 ] } },
{ "type": "Feature", "properties": { "park_name": "Robert T Heitzman Recreation Center", "dpp_asset_id": null, "program_type": "PPR_REC", "site_class": "A", "building": "Y", "gym": "Y", "label_number": null, "comments": " ", "data_source": "Programs 10/2025", "objectid": 48 }, "geometry": { "type": "Point", "coordinates": [ -75.098656662400003, 39.997705055454396 ] } },
{ "type": "Feature", "properties": { "park_name": "Ramonita Negron Rivera Recreation and Community Center", "dpp_asset_id": null, "program_type": "PPR_REC", "site_class": "A", "building": "Y", "gym": "Y", "label_number": null, "comments": "2024 Rebuild Renovations Complete.", "data_source": "Programs 10/2025", "objectid": 49 }, "geometry": { "type": "Point", "coordinates": [ -75.137620173177595, 40.000447532990698 ] } },
{ "type": "Feature", "properties": { "park_name": "Sergeant John J McVeigh Recreation Center", "dpp_asset_id": null, "program_type": "PPR_REC", "site_class": "A", "building": "Y", "gym": "Y", "label_number": null, "comments": "Closed for Rebuild", "data_source": "Programs 10/2025", "objectid": 50 }, "geometry": { "type": "Point", "coordinates": [ -75.121548611857804, 40.000169462297997 ] } },
{ "type": "Feature", "properties": { "park_name": "Bridesburg Recreation Center", "dpp_asset_id": null, "program_type": "PPR_REC", "site_class": "A", "building": "Y", "gym": "Y", "label_number": null, "comments": " ", "data_source": "Programs 10/2025", "objectid": 51 }, "geometry": { "type": "Point", "coordinates": [ -75.068187407772299, 39.999523458758503 ] } },
{ "type": "Feature", "properties": { "park_name": "John (Steve) Schmidt Playground", "dpp_asset_id": null, "program_type": "PPR_REC", "site_class": "A", "building": "Y", "gym": "N", "label_number": null, "comments": " ", "data_source": "Programs 10/2025", "objectid": 52 }, "geometry": { "type": "Point", "coordinates": [ -75.129234203022904, 40.001846701058298 ] } },
{ "type": "Feature", "properties": { "park_name": "Joseph A Scanlon Playground", "dpp_asset_id": null, "program_type": "PPR_REC", "site_class": "A", "building": "Y", "gym": "N", "label_number": null, "comments": " ", "data_source": "Programs 10/2025", "objectid": 53 }, "geometry": { "type": "Point", "coordinates": [ -75.108360459722903, 40.001457656864801 ] } },
{ "type": "Feature", "properties": { "park_name": "Jerome Brown Playground", "dpp_asset_id": null, "program_type": "PPR_REC", "site_class": "A", "building": "Y", "gym": "N", "label_number": null, "comments": " ", "data_source": "Programs 10/2025", "objectid": 54 }, "geometry": { "type": "Point", "coordinates": [ -75.161400229212703, 40.006241801305201 ] } },
{ "type": "Feature", "properties": { "park_name": "Gustine Recreation Center", "dpp_asset_id": null, "program_type": "PPR_REC", "site_class": "A", "building": "Y", "gym": "Y", "label_number": null, "comments": " ", "data_source": "Programs 10/2025", "objectid": 55 }, "geometry": { "type": "Point", "coordinates": [ -75.203588753352804, 40.013356028693003 ] } },
{ "type": "Feature", "properties": { "park_name": "Carmella A DiTizio Playground", "dpp_asset_id": null, "program_type": "PPR_REC", "site_class": "A", "building": "Y", "gym": "N", "label_number": null, "comments": "renovations completed 2025.", "data_source": "Programs 10/2025", "objectid": 56 }, "geometry": { "type": "Point", "coordinates": [ -75.073111976031399, 40.011121183858897 ] } },
{ "type": "Feature", "properties": { "park_name": "Boniface Piccoli Playground", "dpp_asset_id": null, "program_type": "PPR_REC", "site_class": "A", "building": "Y", "gym": "N", "label_number": null, "comments": " ", "data_source": "Programs 10/2025", "objectid": 57 }, "geometry": { "type": "Point", "coordinates": [ -75.096872668394695, 40.012797761564997 ] } },
{ "type": "Feature", "properties": { "park_name": "Hunting Park", "dpp_asset_id": null, "program_type": "PPR_REC", "site_class": "A", "building": "Y", "gym": "Y", "label_number": null, "comments": " ", "data_source": "Programs 10/2025", "objectid": 58 }, "geometry": { "type": "Point", "coordinates": [ -75.143653057579002, 40.017662142940097 ] } },
{ "type": "Feature", "properties": { "park_name": "American Legion Playground", "dpp_asset_id": null, "program_type": "PPR_REC", "site_class": "A", "building": "Y", "gym": "N", "label_number": null, "comments": " ", "data_source": "Programs 10/2025", "objectid": 59 }, "geometry": { "type": "Point", "coordinates": [ -75.054279553504102, 40.018424797344998 ] } },
{ "type": "Feature", "properties": { "park_name": "Feltonville Recreation Center", "dpp_asset_id": null, "program_type": "PPR_REC", "site_class": "A", "building": "Y", "gym": "Y", "label_number": null, "comments": " ", "data_source": "Programs 10/2025", "objectid": 60 }, "geometry": { "type": "Point", "coordinates": [ -75.120932177808797, 40.021619567628598 ] } },
{ "type": "Feature", "properties": { "park_name": "Private Alfred J Simpson Memorial Recreation Center", "dpp_asset_id": null, "program_type": "PPR_REC", "site_class": "A", "building": "Y", "gym": "Y", "label_number": null, "comments": " ", "data_source": "Programs 10/2025", "objectid": 61 }, "geometry": { "type": "Point", "coordinates": [ -75.093124624249199, 40.021528557592397 ] } },
{ "type": "Feature", "properties": { "park_name": "Frank JG Dorsey Memorial Playground", "dpp_asset_id": null, "program_type": "PPR_REC", "site_class": "A", "building": "Y", "gym": "N", "label_number": null, "comments": " ", "data_source": "Programs 10/2025", "objectid": 62 }, "geometry": { "type": "Point", "coordinates": [ -75.048575064127604, 40.021313847335001 ] } },
{ "type": "Feature", "properties": { "park_name": "Stenton Park", "dpp_asset_id": null, "program_type": "PPR_REC", "site_class": "A", "building": "Y", "gym": "N", "label_number": null, "comments": " ", "data_source": "Programs 10/2025", "objectid": 63 }, "geometry": { "type": "Point", "coordinates": [ -75.152315457534797, 40.024498354995501 ] } },
{ "type": "Feature", "properties": { "park_name": "Joseph C McIlvain Playground", "dpp_asset_id": null, "program_type": "PPR_REC", "site_class": "A", "building": "Y", "gym": "N", "label_number": null, "comments": " ", "data_source": "Programs 10/2025", "objectid": 64 }, "geometry": { "type": "Point", "coordinates": [ -75.080131917473906, 40.024235982351698 ] } },
{ "type": "Feature", "properties": { "park_name": "W Freeland Kendrick Recreation Center", "dpp_asset_id": null, "program_type": "PPR_REC", "site_class": "A", "building": "Y", "gym": "Y", "label_number": null, "comments": " ", "data_source": "Programs 10/2025", "objectid": 65 }, "geometry": { "type": "Point", "coordinates": [ -75.211353141683901, 40.028828344811302 ] } },
{ "type": "Feature", "properties": { "park_name": "Franklin Delano Roosevelt Playground", "dpp_asset_id": null, "program_type": "PPR_REC", "site_class": "A", "building": "Y", "gym": "N", "label_number": null, "comments": " ", "data_source": "Programs 10/2025", "objectid": 66 }, "geometry": { "type": "Point", "coordinates": [ -75.054234402592499, 40.025820971573097 ] } },
{ "type": "Feature", "properties": { "park_name": "Joseph F Vogt Playground", "dpp_asset_id": null, "program_type": "PPR_REC", "site_class": "A", "building": "Y", "gym": "Y", "label_number": null, "comments": " ", "data_source": "Programs 10/2025", "objectid": 67 }, "geometry": { "type": "Point", "coordinates": [ -75.049165394629597, 40.0281249182473 ] } },
{ "type": "Feature", "properties": { "park_name": "Disston Recreation Center", "dpp_asset_id": null, "program_type": "PPR_REC", "site_class": "A", "building": "Y", "gym": "Y", "label_number": null, "comments": "Rebuild complete 10/2025", "data_source": "Programs 10/2025", "objectid": 68 }, "geometry": { "type": "Point", "coordinates": [ -75.044047788223693, 40.028382462176701 ] } },
{ "type": "Feature", "properties": { "park_name": "Lower Mayfair Playground", "dpp_asset_id": null, "program_type": "PPR_REC", "site_class": "A", "building": "Y", "gym": "N", "label_number": null, "comments": " ", "data_source": "Programs 10/2025", "objectid": 69 }, "geometry": { "type": "Point", "coordinates": [ -75.061263814416193, 40.029389356986599 ] } },
{ "type": "Feature", "properties": { "park_name": "Edward Houseman Playground", "dpp_asset_id": null, "program_type": "PPR_REC", "site_class": "A", "building": "Y", "gym": "Y", "label_number": null, "comments": " ", "data_source": "Programs 10/2025", "objectid": 70 }, "geometry": { "type": "Point", "coordinates": [ -75.093675757250594, 40.029704740206803 ] } },
{ "type": "Feature", "properties": { "park_name": "John L Barrett Playground", "dpp_asset_id": null, "program_type": "PPR_REC", "site_class": "A", "building": "Y", "gym": "N", "label_number": null, "comments": "Closed for Rebuild", "data_source": "Programs 10/2025", "objectid": 71 }, "geometry": { "type": "Point", "coordinates": [ -75.135674340841703, 40.031277373501197 ] } },
{ "type": "Feature", "properties": { "park_name": "Wister Playground", "dpp_asset_id": null, "program_type": "PPR_REC", "site_class": "A", "building": "Y", "gym": "N", "label_number": null, "comments": " ", "data_source": "Programs 10/2025", "objectid": 72 }, "geometry": { "type": "Point", "coordinates": [ -75.160266121341607, 40.032377429979697 ] } },
{ "type": "Feature", "properties": { "park_name": "Lonnie Cohen Recreation Center", "dpp_asset_id": null, "program_type": "PPR_REC", "site_class": "A", "building": "Y", "gym": "Y", "label_number": null, "comments": "Formerly Hillside, name changed 2023.", "data_source": "Programs 10/2025", "objectid": 73 }, "geometry": { "type": "Point", "coordinates": [ -75.229087179270394, 40.033951154942599 ] } },
{ "type": "Feature", "properties": { "park_name": "Charles A Russo Playground", "dpp_asset_id": null, "program_type": "PPR_REC", "site_class": "A", "building": "Y", "gym": "N", "label_number": null, "comments": " ", "data_source": "Programs 10/2025", "objectid": 74 }, "geometry": { "type": "Point", "coordinates": [ -75.0334248563926, 40.030066592916 ] } },
{ "type": "Feature", "properties": { "park_name": "Charles J Ziehler Playground", "dpp_asset_id": null, "program_type": "PPR_REC", "site_class": "A", "building": "Y", "gym": "N", "label_number": null, "comments": "2024 Rebuild Renovations Complete", "data_source": "Programs 10/2025", "objectid": 75 }, "geometry": { "type": "Point", "coordinates": [ -75.118081142414098, 40.0341101846752 ] } },
{ "type": "Feature", "properties": { "park_name": "A Albert Cherashore Playground", "dpp_asset_id": null, "program_type": "PPR_REC", "site_class": "A", "building": "Y", "gym": "N", "label_number": null, "comments": " ", "data_source": "Programs 10/2025", "objectid": 76 }, "geometry": { "type": "Point", "coordinates": [ -75.136801207841202, 40.038305091871102 ] } },
{ "type": "Feature", "properties": { "park_name": "Holmesburg Recreation Center", "dpp_asset_id": null, "program_type": "PPR_REC", "site_class": "A", "building": "Y", "gym": "N", "label_number": null, "comments": " ", "data_source": "Programs 10/2025", "objectid": 77 }, "geometry": { "type": "Point", "coordinates": [ -75.027140424053897, 40.0361012531624 ] } },
{ "type": "Feature", "properties": { "park_name": "Max Myers Playground", "dpp_asset_id": null, "program_type": "PPR_REC", "site_class": "A", "building": "Y", "gym": "N", "label_number": null, "comments": " ", "data_source": "Programs 10/2025", "objectid": 78 }, "geometry": { "type": "Point", "coordinates": [ -75.070388128119603, 40.0387411456501 ] } },
{ "type": "Feature", "properties": { "park_name": "Belfield Recreation Center", "dpp_asset_id": null, "program_type": "PPR_REC", "site_class": "A", "building": "Y", "gym": "Y", "label_number": null, "comments": " ", "data_source": "Programs 10/2025", "objectid": 79 }, "geometry": { "type": "Point", "coordinates": [ -75.156303306033095, 40.0421738021018 ] } },
{ "type": "Feature", "properties": { "park_name": "Seymour Tarken Recreation Center", "dpp_asset_id": null, "program_type": "PPR_REC", "site_class": "A", "building": "Y", "gym": "N", "label_number": null, "comments": "Tarkan Ice Rink is a separate buliding on the same site.", "data_source": "Programs 10/2025", "objectid": 80 }, "geometry": { "type": "Point", "coordinates": [ -75.082181624758405, 40.040722215298899 ] } },
{ "type": "Feature", "properties": { "park_name": "Mayfair Recreation Center", "dpp_asset_id": null, "program_type": "PPR_REC", "site_class": "A", "building": "Y", "gym": "Y", "label_number": null, "comments": " ", "data_source": "Programs 10/2025", "objectid": 81 }, "geometry": { "type": "Point", "coordinates": [ -75.053083373246395, 40.039881677745797 ] } },
{ "type": "Feature", "properties": { "park_name": "Olney Recreation Center", "dpp_asset_id": null, "program_type": "PPR_REC", "site_class": "A", "building": "Y", "gym": "Y", "label_number": null, "comments": "Closed for Rebuild ", "data_source": "Programs 10/2025", "objectid": 82 }, "geometry": { "type": "Point", "coordinates": [ -75.116870365528001, 40.0425385493986 ] } },
{ "type": "Feature", "properties": { "park_name": "Donna Reed Miller Park", "dpp_asset_id": null, "program_type": "PPR_REC", "site_class": "A", "building": "Y", "gym": "Y", "label_number": null, "comments": "Closed for Renovations. 1/2026-Park was renamed.", "data_source": "Programs 10/2025; GIS 2026", "objectid": 83 }, "geometry": { "type": "Point", "coordinates": [ -75.168686465118398, 40.045422198743999 ] } },
{ "type": "Feature", "properties": { "park_name": "Lawncrest Recreation Center", "dpp_asset_id": null, "program_type": "PPR_REC", "site_class": "A", "building": "Y", "gym": "Y", "label_number": null, "comments": "Closed for Rebuild (2024)", "data_source": "Programs 10/2025", "objectid": 84 }, "geometry": { "type": "Point", "coordinates": [ -75.101320191985906, 40.046156334607097 ] } },
{ "type": "Feature", "properties": { "park_name": "Daniel E Rumph II Recreation Center", "dpp_asset_id": null, "program_type": "PPR_REC", "site_class": "A", "building": "Y", "gym": "Y", "label_number": null, "comments": " ", "data_source": "Programs 10/2025", "objectid": 85 }, "geometry": { "type": "Point", "coordinates": [ -75.179686086872294, 40.047732784581498 ] } },
{ "type": "Feature", "properties": { "park_name": "Helen G Sturgis Playground", "dpp_asset_id": null, "program_type": "PPR_REC", "site_class": "A", "building": "Y", "gym": "N", "label_number": null, "comments": " ", "data_source": "Programs 10/2025", "objectid": 86 }, "geometry": { "type": "Point", "coordinates": [ -75.123813933780696, 40.0491070360005 ] } },
{ "type": "Feature", "properties": { "park_name": "Morris Estate Cultural Center", "dpp_asset_id": null, "program_type": "PPR_REC", "site_class": "A", "building": "Y", "gym": "N", "label_number": null, "comments": " ", "data_source": "Programs 10/2025", "objectid": 87 }, "geometry": { "type": "Point", "coordinates": [ -75.146362890219507, 40.0505422829903 ] } },
{ "type": "Feature", "properties": { "park_name": "James J Ramp Playground", "dpp_asset_id": null, "program_type": "PPR_REC", "site_class": "A", "building": "Y", "gym": "N", "label_number": null, "comments": " ", "data_source": "Programs 10/2025", "objectid": 88 }, "geometry": { "type": "Point", "coordinates": [ -75.024569362954296, 40.0478974189826 ] } },
{ "type": "Feature", "properties": { "park_name": "George Jacobs Playground", "dpp_asset_id": null, "program_type": "PPR_REC", "site_class": "A", "building": "Y", "gym": "N", "label_number": null, "comments": "Gym on site is Non-PPR, it is an athletic association.", "data_source": "Programs 10/2025", "objectid": 89 }, "geometry": { "type": "Point", "coordinates": [ -75.001960452039995, 40.051401703917499 ] } },
{ "type": "Feature", "properties": { "park_name": "Mount Airy Playground", "dpp_asset_id": null, "program_type": "PPR_REC", "site_class": "A", "building": "Y", "gym": "N", "label_number": null, "comments": " ", "data_source": "Programs 10/2025", "objectid": 90 }, "geometry": { "type": "Point", "coordinates": [ -75.188020285192096, 40.057735743378103 ] } },
{ "type": "Feature", "properties": { "park_name": "Pleasant Playground", "dpp_asset_id": null, "program_type": "PPR_REC", "site_class": "A", "building": "Y", "gym": "N", "label_number": null, "comments": " ", "data_source": "Programs 10/2025", "objectid": 91 }, "geometry": { "type": "Point", "coordinates": [ -75.182397530960102, 40.057092089834597 ] } },
{ "type": "Feature", "properties": { "park_name": "Thomas E Jardel Memorial Field", "dpp_asset_id": null, "program_type": "PPR_REC", "site_class": "A", "building": "Y", "gym": "Y", "label_number": null, "comments": " ", "data_source": "Programs 10/2025", "objectid": 92 }, "geometry": { "type": "Point", "coordinates": [ -75.076421766077999, 40.056233825784098 ] } },
{ "type": "Feature", "properties": { "park_name": "William B Simons Recreation Center", "dpp_asset_id": null, "program_type": "PPR_REC", "site_class": "A", "building": "Y", "gym": "Y", "label_number": null, "comments": " ", "data_source": "Programs 10/2025", "objectid": 93 }, "geometry": { "type": "Point", "coordinates": [ -75.157485351183396, 40.061570059302298 ] } },
{ "type": "Feature", "properties": { "park_name": "George C Pelbano Playground", "dpp_asset_id": null, "program_type": "PPR_REC", "site_class": "A", "building": "Y", "gym": "Y", "label_number": null, "comments": " ", "data_source": "Programs 10/2025", "objectid": 94 }, "geometry": { "type": "Point", "coordinates": [ -75.050779361105995, 40.061740952131103 ] } },
{ "type": "Feature", "properties": { "park_name": "Wissahickon Valley Park", "dpp_asset_id": null, "program_type": "PPR_REC", "site_class": "A", "building": "Y", "gym": "N", "label_number": null, "comments": "Located within Wissahickon Valley Park", "data_source": "Programs 10/2025", "objectid": 95 }, "geometry": { "type": "Point", "coordinates": [ -75.231398607819997, 40.0691076149091 ] } },
{ "type": "Feature", "properties": { "park_name": "Thomas Mitchell Playground", "dpp_asset_id": null, "program_type": "PPR_REC", "site_class": "A", "building": "Y", "gym": "N", "label_number": null, "comments": " ", "data_source": "Programs 10/2025", "objectid": 96 }, "geometry": { "type": "Point", "coordinates": [ -74.991948309211296, 40.068239605928198 ] } },
{ "type": "Feature", "properties": { "park_name": "Water Tower Recreation Center", "dpp_asset_id": null, "program_type": "PPR_REC", "site_class": "A", "building": "Y", "gym": "Y", "label_number": null, "comments": " ", "data_source": "Programs 10/2025", "objectid": 97 }, "geometry": { "type": "Point", "coordinates": [ -75.200497906011606, 40.0753790322469 ] } },
{ "type": "Feature", "properties": { "park_name": "Fox Chase Recreation Center", "dpp_asset_id": null, "program_type": "PPR_REC", "site_class": "A", "building": "Y", "gym": "Y", "label_number": null, "comments": " ", "data_source": "Programs 10/2025", "objectid": 98 }, "geometry": { "type": "Point", "coordinates": [ -75.081678805579401, 40.074194827244803 ] } },
{ "type": "Feature", "properties": { "park_name": "Dorothy Emanuel Recreation Center", "dpp_asset_id": null, "program_type": "PPR_REC", "site_class": "A", "building": "Y", "gym": "Y", "label_number": null, "comments": " ", "data_source": "Programs 10/2025", "objectid": 99 }, "geometry": { "type": "Point", "coordinates": [ -75.175662516379006, 40.081450644305797 ] } },
{ "type": "Feature", "properties": { "park_name": "Corporal Jimmy OConnor Memorial Playground", "dpp_asset_id": null, "program_type": "PPR_REC", "site_class": "A", "building": "Y", "gym": "N", "label_number": null, "comments": "Gym nearby is NOT PPR, it is an athletic association building. Formerly Chalfont Playground", "data_source": "Programs 10/2025", "objectid": 100 }, "geometry": { "type": "Point", "coordinates": [ -74.974018960919594, 40.080112074233298 ] } },
{ "type": "Feature", "properties": { "park_name": "Elizabeth M Picariello Playground", "dpp_asset_id": null, "program_type": "PPR_REC", "site_class": "A", "building": "Y", "gym": "Y", "label_number": null, "comments": " ", "data_source": "Programs 10/2025", "objectid": 101 }, "geometry": { "type": "Point", "coordinates": [ -74.989268578872597, 40.080442516971203 ] } },
{ "type": "Feature", "properties": { "park_name": "Officer Robert Hayes Memorial Playground", "dpp_asset_id": null, "program_type": "PPR_REC", "site_class": "A", "building": "Y", "gym": "Y", "label_number": null, "comments": "Gym extension constructred in 2019.", "data_source": "Programs 10/2025", "objectid": 102 }, "geometry": { "type": "Point", "coordinates": [ -75.020781987721094, 40.091177438553999 ] } },
{ "type": "Feature", "properties": { "park_name": "Michael Palmer Playground", "dpp_asset_id": null, "program_type": "PPR_REC", "site_class": "A", "building": "Y", "gym": "N", "label_number": null, "comments": "Northern property building is for the Far NE Athletic Association, it is NOT PPR Programmed.", "data_source": "Programs 10/2025", "objectid": 103 }, "geometry": { "type": "Point", "coordinates": [ -74.989064367193293, 40.095782371582096 ] } },
{ "type": "Feature", "properties": { "park_name": "Eileen Fitzpatrick Playground", "dpp_asset_id": null, "program_type": "PPR_REC", "site_class": "A", "building": "Y", "gym": "N", "label_number": null, "comments": " ", "data_source": "Programs 10/2025", "objectid": 104 }, "geometry": { "type": "Point", "coordinates": [ -74.972194788678607, 40.096321186869702 ] } },
{ "type": "Feature", "properties": { "park_name": "William A Lackman Memorial Playground", "dpp_asset_id": null, "program_type": "PPR_REC", "site_class": "A", "building": "Y", "gym": "N", "label_number": null, "comments": " ", "data_source": "Programs 10/2025", "objectid": 105 }, "geometry": { "type": "Point", "coordinates": [ -75.033201414205095, 40.100267948581198 ] } },
{ "type": "Feature", "properties": { "park_name": "Jim Junod Recreation Center", "dpp_asset_id": null, "program_type": "PPR_REC", "site_class": "A", "building": "Y", "gym": "N", "label_number": null, "comments": " ", "data_source": "Programs 10/2025", "objectid": 106 }, "geometry": { "type": "Point", "coordinates": [ -74.969439634095806, 40.103406056859697 ] } },
{ "type": "Feature", "properties": { "park_name": "Tomlinson and Gifford Playground", "dpp_asset_id": null, "program_type": "PPR_REC", "site_class": "A", "building": "Y", "gym": "N", "label_number": null, "comments": " ", "data_source": "Programs 10/2025", "objectid": 107 }, "geometry": { "type": "Point", "coordinates": [ -75.024724677804898, 40.114909660690202 ] } },
{ "type": "Feature", "properties": { "park_name": "Lonnie Young Recreation Center of East Germantown", "dpp_asset_id": null, "program_type": "PPR_REC", "site_class": "A", "building": "Y", "gym": "Y", "label_number": null, "comments": " ", "data_source": "Programs 10/2025", "objectid": 108 }, "geometry": { "type": "Point", "coordinates": [ -75.159563950136601, 40.049999221151502 ] } },
{ "type": "Feature", "properties": { "park_name": "William (Billy) Gambrel Playground", "dpp_asset_id": null, "program_type": "PPR_REC", "site_class": "A", "building": "Y", "gym": "Y", "label_number": null, "comments": " ", "data_source": "Programs 10/2025", "objectid": 109 }, "geometry": { "type": "Point", "coordinates": [ -75.075875240290898, 40.0142254181862 ] } },
{ "type": "Feature", "properties": { "park_name": "Penrose Memorial Playground", "dpp_asset_id": null, "program_type": "PPR_REC", "site_class": "A", "building": "Y", "gym": "N", "label_number": null, "comments": "", "data_source": "Programs 10/2025", "objectid": 110 }, "geometry": { "type": "Point", "coordinates": [ -75.151719668541304, 39.986074886630902 ] } },
{ "type": "Feature", "properties": { "park_name": "Francis J Myers Recreation Center", "dpp_asset_id": null, "program_type": "PPR_REC", "site_class": "A", "building": "Y", "gym": "Y", "label_number": null, "comments": "2024-Closed for Rebuild. Moved to Daroff School", "data_source": "Programs 10/2025", "objectid": 111 }, "geometry": { "type": "Point", "coordinates": [ -75.228489047392898, 39.934625657017399 ] } },
{ "type": "Feature", "properties": { "park_name": "Marie Dendy Recreation Center", "dpp_asset_id": null, "program_type": "PPR_REC", "site_class": "A", "building": "Y", "gym": "N", "label_number": null, "comments": " ", "data_source": "Programs 10/2025", "objectid": 112 }, "geometry": { "type": "Point", "coordinates": [ -75.150773955538497, 39.976082653144402 ] } },
{ "type": "Feature", "properties": { "park_name": "Hancock Playground", "dpp_asset_id": null, "program_type": "PPR_REC", "site_class": "A", "building": "Y", "gym": "N", "label_number": null, "comments": " ", "data_source": "Programs 10/2025", "objectid": 113 }, "geometry": { "type": "Point", "coordinates": [ -75.137319652835799, 39.9728830105187 ] } },
{ "type": "Feature", "properties": { "park_name": "Waterloo Playground", "dpp_asset_id": null, "program_type": "PPR_REC", "site_class": "A", "building": "Y", "gym": "N", "label_number": null, "comments": " ", "data_source": "Programs 10/2025", "objectid": 114 }, "geometry": { "type": "Point", "coordinates": [ -75.132925829521994, 39.988575263677603 ] } },
{ "type": "Feature", "properties": { "park_name": "Charles Baker and Carol Baker Rice Recreation Center", "dpp_asset_id": null, "program_type": "PPR_REC", "site_class": "B", "building": "Y", "gym": "N", "label_number": null, "comments": "Name changed in 2023.", "data_source": "Programs 10/2025", "objectid": 115 }, "geometry": { "type": "Point", "coordinates": [ -75.231186550251195, 39.977230839912302 ] } },
{ "type": "Feature", "properties": { "park_name": "James L Wright Playground", "dpp_asset_id": null, "program_type": "PPR_REC", "site_class": "A", "building": "Y", "gym": "Y", "label_number": null, "comments": " ", "data_source": "Programs 10/2025", "objectid": 116 }, "geometry": { "type": "Point", "coordinates": [ -75.190866619629304, 39.963768297614997 ] } },
{ "type": "Feature", "properties": { "park_name": "Cecil B Moore Recreation Center", "dpp_asset_id": null, "program_type": "PPR_REC", "site_class": "A", "building": "Y", "gym": "Y", "label_number": null, "comments": " ", "data_source": "Programs 10/2025", "objectid": 117 }, "geometry": { "type": "Point", "coordinates": [ -75.167552660530603, 39.993660315182098 ] } },
{ "type": "Feature", "properties": { "park_name": "Wharton Square", "dpp_asset_id": null, "program_type": "PPR_REC", "site_class": "A", "building": "Y", "gym": "N", "label_number": null, "comments": "", "data_source": "Programs 10/2025", "objectid": 118 }, "geometry": { "type": "Point", "coordinates": [ -75.183245935367594, 39.935499441451299 ] } },
{ "type": "Feature", "properties": { "park_name": "Shot Tower Recreation Center", "dpp_asset_id": null, "program_type": "PPR_REC", "site_class": "A", "building": "Y", "gym": "Y", "label_number": null, "comments": " ", "data_source": "Programs 10/2025", "objectid": 119 }, "geometry": { "type": "Point", "coordinates": [ -75.145936964286506, 39.934798627039903 ] } },
{ "type": "Feature", "properties": { "park_name": "Hawthorne Cultural Center", "dpp_asset_id": null, "program_type": "PPR_REC", "site_class": "A", "building": "Y", "gym": "N", "label_number": null, "comments": " ", "data_source": "Programs 10/2025", "objectid": 120 }, "geometry": { "type": "Point", "coordinates": [ -75.163493956522302, 39.938479584116202 ] } },
{ "type": "Feature", "properties": { "park_name": "Starr Garden Playground", "dpp_asset_id": null, "program_type": "PPR_REC", "site_class": "A", "building": "Y", "gym": "N", "label_number": null, "comments": " ", "data_source": "Programs 10/2025", "objectid": 121 }, "geometry": { "type": "Point", "coordinates": [ -75.152835831648304, 39.942720669123098 ] } },
{ "type": "Feature", "properties": { "park_name": "Charles T Mitchell Jr (Seger) Park", "dpp_asset_id": null, "program_type": "PPR_REC", "site_class": "A", "building": "Y", "gym": "N", "label_number": null, "comments": "Building is named for Charles Seger (1977); Site is named for Charles T Mitchell Jr (1976).", "data_source": "Programs 10/2025", "objectid": 122 }, "geometry": { "type": "Point", "coordinates": [ -75.159308329597494, 39.943618335525002 ] } },
{ "type": "Feature", "properties": { "park_name": "Schuylkill River Park", "dpp_asset_id": null, "program_type": "PPR_REC", "site_class": "A", "building": "Y", "gym": "N", "label_number": null, "comments": "Located within Schuylkill River Park", "data_source": "Programs 10/2025", "objectid": 123 }, "geometry": { "type": "Point", "coordinates": [ -75.183272522487101, 39.947994609198503 ] } },
{ "type": "Feature", "properties": { "park_name": "Cobbs Creek Park", "dpp_asset_id": null, "program_type": "PPR_REC", "site_class": "A", "building": "Y", "gym": "Y", "label_number": null, "comments": "Located in Cobbs Creek Park. Closed for Rebuild", "data_source": "Programs 10/2025", "objectid": 124 }, "geometry": { "type": "Point", "coordinates": [ -75.249103027897107, 39.958196317839402 ] } },
{ "type": "Feature", "properties": { "park_name": "John A Lee Cultural Center", "dpp_asset_id": null, "program_type": "PPR_REC", "site_class": "A", "building": "Y", "gym": "N", "label_number": null, "comments": " ", "data_source": "Programs 10/2025", "objectid": 125 }, "geometry": { "type": "Point", "coordinates": [ -75.210727896302203, 39.961664004561499 ] } },
{ "type": "Feature", "properties": { "park_name": "West Mill Creek Playground", "dpp_asset_id": null, "program_type": "PPR_REC", "site_class": "A", "building": "Y", "gym": "N", "label_number": null, "comments": " ", "data_source": "Programs 10/2025", "objectid": 126 }, "geometry": { "type": "Point", "coordinates": [ -75.223024524997797, 39.9674667847828 ] } },
{ "type": "Feature", "properties": { "park_name": "Haddington-Marshall L Shepard Sr Recreation Center", "dpp_asset_id": null, "program_type": "PPR_REC", "site_class": "A", "building": "Y", "gym": "Y", "label_number": null, "comments": " ", "data_source": "Programs 10/2025", "objectid": 127 }, "geometry": { "type": "Point", "coordinates": [ -75.234179654289093, 39.9672698620017 ] } },
{ "type": "Feature", "properties": { "park_name": "East Poplar Playground", "dpp_asset_id": null, "program_type": "PPR_REC", "site_class": "A", "building": "Y", "gym": "N", "label_number": null, "comments": " ", "data_source": "Programs 10/2025", "objectid": 128 }, "geometry": { "type": "Point", "coordinates": [ -75.151152125028702, 39.966796459849697 ] } },
{ "type": "Feature", "properties": { "park_name": "West Fairmount Park", "dpp_asset_id": null, "program_type": "PPR_REC", "site_class": "A", "building": "Y", "gym": "Y", "label_number": null, "comments": "Located in West Fairmount Park. Currently closed for Rebuild.", "data_source": "Programs 10/2025", "objectid": 129 }, "geometry": { "type": "Point", "coordinates": [ -75.2127062711251, 39.9792515301354 ] } },
{ "type": "Feature", "properties": { "park_name": "Michael J Towey Playground", "dpp_asset_id": null, "program_type": "PPR_REC", "site_class": "A", "building": "Y", "gym": "Y", "label_number": null, "comments": " ", "data_source": "Programs 10/2025", "objectid": 130 }, "geometry": { "type": "Point", "coordinates": [ -75.135109677318496, 39.978398944724397 ] } },
{ "type": "Feature", "properties": { "park_name": "East Fairmount Park", "dpp_asset_id": null, "program_type": "PPR_REC", "site_class": "A", "building": "Y", "gym": "N", "label_number": null, "comments": "Located in East Fairmount Park", "data_source": "Programs 10/2025", "objectid": 131 }, "geometry": { "type": "Point", "coordinates": [ -75.187803026754395, 39.989781910702902 ] } },
{ "type": "Feature", "properties": { "park_name": "Harry S McDevitt Playground", "dpp_asset_id": null, "program_type": "PPR_REC", "site_class": "A", "building": "Y", "gym": "Y", "label_number": null, "comments": " ", "data_source": "Programs 10/2025", "objectid": 132 }, "geometry": { "type": "Point", "coordinates": [ -75.186769689167903, 40.008796341513801 ] } },
{ "type": "Feature", "properties": { "park_name": "Happy Hollow Recreation Center", "dpp_asset_id": null, "program_type": "PPR_REC", "site_class": "A", "building": "Y", "gym": "Y", "label_number": null, "comments": " ", "data_source": "Programs 10/2025", "objectid": 133 }, "geometry": { "type": "Point", "coordinates": [ -75.166272168354396, 40.023693195036998 ] } },
{ "type": "Feature", "properties": { "park_name": "Wissinoming Park", "dpp_asset_id": null, "program_type": "PPR_REC", "site_class": "A", "building": "Y", "gym": "N", "label_number": null, "comments": "", "data_source": "Programs 10/2025", "objectid": 134 }, "geometry": { "type": "Point", "coordinates": [ -75.069619963246495, 40.024013724551999 ] } },
{ "type": "Feature", "properties": { "park_name": "Torresdale Recreation Center", "dpp_asset_id": null, "program_type": "PPR_REC", "site_class": "A", "building": "Y", "gym": "N", "label_number": null, "comments": " ", "data_source": "Programs 10/2025", "objectid": 135 }, "geometry": { "type": "Point", "coordinates": [ -74.998205072732006, 40.058979690820799 ] } },
{ "type": "Feature", "properties": { "park_name": "Athletic Recreation Center", "dpp_asset_id": null, "program_type": "PPR_REC", "site_class": "A", "building": "Y", "gym": "Y", "label_number": null, "comments": " ", "data_source": "Programs 10/2025", "objectid": 136 }, "geometry": { "type": "Point", "coordinates": [ -75.178667699022995, 39.977951358224203 ] } },
{ "type": "Feature", "properties": { "park_name": "Eastwick Regional Playground", "dpp_asset_id": null, "program_type": "PPR_REC", "site_class": "A", "building": "Y", "gym": "N", "label_number": null, "comments": " ", "data_source": "Programs 10/2025", "objectid": 137 }, "geometry": { "type": "Point", "coordinates": [ -75.251101010831107, 39.904437739471199 ] } },
{ "type": "Feature", "properties": { "park_name": "Frank S Nelson Jr Memorial Recreation Center", "dpp_asset_id": null, "program_type": "PPR_REC", "site_class": "A", "building": "Y", "gym": "N", "label_number": null, "comments": "2019-2020 Renovations Complete", "data_source": "Programs 10/2025", "objectid": 138 }, "geometry": { "type": "Point", "coordinates": [ -75.138186423481699, 39.989071396940403 ] } },
{ "type": "Feature", "properties": { "park_name": "Tacony Creek Park", "dpp_asset_id": null, "program_type": "PPR_REC", "site_class": "A", "building": "Y", "gym": "N", "label_number": null, "comments": "Located in Tacony Creek Park", "data_source": "Programs 10/2025", "objectid": 139 }, "geometry": { "type": "Point", "coordinates": [ -75.104998112163202, 40.014776542993602 ] } },
{ "type": "Feature", "properties": { "park_name": "Marie Winchester Playground", "dpp_asset_id": null, "program_type": "PPR_REC", "site_class": "A", "building": "Y", "gym": "N", "label_number": null, "comments": " ", "data_source": "Programs 10/2025", "objectid": 140 }, "geometry": { "type": "Point", "coordinates": [ -75.157770610331994, 39.988809724993203 ] } },
{ "type": "Feature", "properties": { "park_name": "Jacob Stinger Park", "dpp_asset_id": null, "program_type": "PPR_REC", "site_class": "B", "building": "N", "gym": "N", "label_number": null, "comments": "", "data_source": "Programs 10/2025", "objectid": 141 }, "geometry": { "type": "Point", "coordinates": [ -75.197743405889895, 39.9362172929428 ] } },
{ "type": "Feature", "properties": { "park_name": "Norman (Butch) Ellis Playground", "dpp_asset_id": null, "program_type": "PPR_REC", "site_class": "B", "building": "Y", "gym": "N", "label_number": null, "comments": " ", "data_source": "Programs 10/2025", "objectid": 142 }, "geometry": { "type": "Point", "coordinates": [ -75.200883320953807, 39.965931962406302 ] } },
{ "type": "Feature", "properties": { "park_name": "Lincoln Indoor Pool", "dpp_asset_id": null, "program_type": "POOL", "site_class": "S", "building": "Y", "gym": "N", "label_number": null, "comments": "School District Property/Facility;PPR Programs (Ramp)", "data_source": "Programs 10/2025", "objectid": 143 }, "geometry": { "type": "Point", "coordinates": [ -75.039922885699298, 40.042671197268 ] } },
{ "type": "Feature", "properties": { "park_name": "Venice Island Performing Arts and Recreation Center", "dpp_asset_id": null, "program_type": "PPR_REC", "site_class": "A", "building": "Y", "gym": "N", "label_number": null, "comments": " ", "data_source": "Programs 10/2025", "objectid": 144 }, "geometry": { "type": "Point", "coordinates": [ -75.221840189356499, 40.023309136790601 ] } },
{ "type": "Feature", "properties": { "park_name": "Thomas B Smith Recreation Center", "dpp_asset_id": null, "program_type": "PPR_REC", "site_class": "A", "building": "Y", "gym": "N", "label_number": null, "comments": " ", "data_source": "Programs 10/2025", "objectid": 145 }, "geometry": { "type": "Point", "coordinates": [ -75.187364676813999, 39.925426971375003 ] } },
{ "type": "Feature", "properties": { "park_name": "East Passyunk Community Recreation Center", "dpp_asset_id": null, "program_type": "PPR_REC", "site_class": "A", "building": "Y", "gym": "Y", "label_number": null, "comments": " ", "data_source": "Programs 10/2025", "objectid": 146 }, "geometry": { "type": "Point", "coordinates": [ -75.163434796653704, 39.9262748910947 ] } },
{ "type": "Feature", "properties": { "park_name": "Ralph R Rizzo Sr Ice Rink", "dpp_asset_id": null, "program_type": "PPR_REC", "site_class": "A", "building": "Y", "gym": "N", "label_number": null, "comments": " ", "data_source": "Programs 10/2025", "objectid": 147 }, "geometry": { "type": "Point", "coordinates": [ -75.145426778591997, 39.932748822692403 ] } },
{ "type": "Feature", "properties": { "park_name": "Cobbs Creek Park", "dpp_asset_id": null, "program_type": "PPR_REC", "site_class": "S", "building": "Y", "gym": "N", "label_number": null, "comments": "Located within Cobbs Creek Park", "data_source": "Programs 10/2025", "objectid": 148 }, "geometry": { "type": "Point", "coordinates": [ -75.248107544578204, 39.959301120280401 ] } },
{ "type": "Feature", "properties": { "park_name": "Juniata Park Older Adult Center", "dpp_asset_id": null, "program_type": "OLDER_ADULT_CENTER", "site_class": "S", "building": "Y", "gym": "N", "label_number": null, "comments": " ", "data_source": "Programs 10/2025", "objectid": 149 }, "geometry": { "type": "Point", "coordinates": [ -75.104551821049895, 40.003849224509999 ] } },
{ "type": "Feature", "properties": { "park_name": "Pennypack Park", "dpp_asset_id": null, "program_type": "ENVIRONMENTAL_EDUCATION_CENTER", "site_class": "S", "building": "Y", "gym": "N", "label_number": null, "comments": "Located within Pennypack Park", "data_source": "Programs 10/2025", "objectid": 150 }, "geometry": { "type": "Point", "coordinates": [ -75.059158305274593, 40.087508021088397 ] } },
{ "type": "Feature", "properties": { "park_name": "Wissahickon Valley Park", "dpp_asset_id": null, "program_type": "ENVIRONMENTAL_EDUCATION_CENTER", "site_class": "S", "building": "Y", "gym": "N", "label_number": null, "comments": "Located within the Andorra Natural Area which is within Wissahickon Valley Park", "data_source": "Programs 10/2025", "objectid": 151 }, "geometry": { "type": "Point", "coordinates": [ -75.233871445887104, 40.081305293202902 ] } },
{ "type": "Feature", "properties": { "park_name": "Cobbs Creek Park", "dpp_asset_id": null, "program_type": "ENVIRONMENTAL_EDUCATION_CENTER", "site_class": "S", "building": "Y", "gym": "N", "label_number": null, "comments": "Located in Cobbs Creek Park. Rebuild completed fall 2025.", "data_source": "Programs 10/2025", "objectid": 152 }, "geometry": { "type": "Point", "coordinates": [ -75.2504145830369, 39.951986916672702 ] } },
{ "type": "Feature", "properties": { "park_name": "Dr Martin Luther King Jr Older Adult Center", "dpp_asset_id": null, "program_type": "OLDER_ADULT_CENTER", "site_class": "S", "building": "Y", "gym": "N", "label_number": null, "comments": " ", "data_source": "Programs 10/2025", "objectid": 153 }, "geometry": { "type": "Point", "coordinates": [ -75.169584976444796, 39.979929472316897 ] } },
{ "type": "Feature", "properties": { "park_name": "West Oak Lane Senior Center", "dpp_asset_id": null, "program_type": "OLDER_ADULT_CENTER", "site_class": "S", "building": "Y", "gym": "N", "label_number": null, "comments": "Not City-Owned Property", "data_source": "Programs 10/2025", "objectid": 154 }, "geometry": { "type": "Point", "coordinates": [ -75.154210013277606, 40.064377735072902 ] } },
{ "type": "Feature", "properties": { "park_name": "Ramonita Negron Rivera Recreation and Community Center", "dpp_asset_id": null, "program_type": "OLDER_ADULT_CENTER", "site_class": "S", "building": "Y", "gym": "N", "label_number": null, "comments": "Located in same building as Rivera.", "data_source": "Programs 10/2025", "objectid": 155 }, "geometry": { "type": "Point", "coordinates": [ -75.137816619607094, 40.000246454744598 ] } },
{ "type": "Feature", "properties": { "park_name": "George C Pelbano Playground", "dpp_asset_id": null, "program_type": "OLDER_ADULT_CENTER", "site_class": "S", "building": "Y", "gym": "N", "label_number": null, "comments": "Located on same property as George C Pelbano Playground", "data_source": "Programs 10/2025", "objectid": 156 }, "geometry": { "type": "Point", "coordinates": [ -75.051316028617507, 40.062523109400502 ] } },
{ "type": "Feature", "properties": { "park_name": "South Philadelphia Older Adult Center", "dpp_asset_id": null, "program_type": "OLDER_ADULT_CENTER", "site_class": "S", "building": "Y", "gym": "N", "label_number": null, "comments": null, "data_source": "Programs 10/2025", "objectid": 157 }, "geometry": { "type": "Point", "coordinates": [ -75.162531716393303, 39.931369894898999 ] } },
{ "type": "Feature", "properties": { "park_name": "West Fairmount Park", "dpp_asset_id": null, "program_type": "POOL", "site_class": "S", "building": "N", "gym": "N", "label_number": null, "comments": "Located in West Fairmount Park", "data_source": "Programs 10/2025", "objectid": 158 }, "geometry": { "type": "Point", "coordinates": [ -75.207745765064999, 39.979050466259601 ] } },
{ "type": "Feature", "properties": { "park_name": "McPherson Square", "dpp_asset_id": null, "program_type": "PPR_REC", "site_class": "B", "building": "N", "gym": "N", "label_number": null, "comments": "", "data_source": "Programs 10/2025", "objectid": 159 }, "geometry": { "type": "Point", "coordinates": [ -75.119135848583397, 39.995030339911096 ] } },
{ "type": "Feature", "properties": { "park_name": "Reverend M Monkiewicz Recreation Center", "dpp_asset_id": null, "program_type": "PPR_REC", "site_class": "A", "building": "Y", "gym": "N", "label_number": null, "comments": "Site Closed.", "data_source": "Programs 10/2025", "objectid": 160 }, "geometry": { "type": "Point", "coordinates": [ -75.100227551372399, 39.9829802670478 ] } },
{ "type": "Feature", "properties": { "park_name": "Victor J Moss Memorial Field", "dpp_asset_id": null, "program_type": "PPR_REC", "site_class": "B", "building": "Y", "gym": "N", "label_number": null, "comments": "", "data_source": "Programs 10/2025", "objectid": 161 }, "geometry": { "type": "Point", "coordinates": [ -75.062830867582505, 40.016279113974697 ] } },
{ "type": "Feature", "properties": { "park_name": "Nelson M Herron Playground and Recreation Center", "dpp_asset_id": null, "program_type": "PPR_REC", "site_class": "B", "building": "Y", "gym": "N", "label_number": null, "comments": "", "data_source": "Programs 10/2025", "objectid": 162 }, "geometry": { "type": "Point", "coordinates": [ -75.148495497381106, 39.930696046744103 ] } },
{ "type": "Feature", "properties": { "park_name": "Clayborne and Lewis Playground", "dpp_asset_id": null, "program_type": "PPR_REC", "site_class": "B", "building": "Y", "gym": "N", "label_number": null, "comments": "", "data_source": "Programs 10/2025", "objectid": 163 }, "geometry": { "type": "Point", "coordinates": [ -75.198962852751393, 39.973481456979499 ] } },
{ "type": "Feature", "properties": { "park_name": "37th and Mount Vernon Playground", "dpp_asset_id": null, "program_type": "PPR_REC", "site_class": "B", "building": "N", "gym": "N", "label_number": null, "comments": "", "data_source": "Programs 10/2025", "objectid": 164 }, "geometry": { "type": "Point", "coordinates": [ -75.196502960362295, 39.9640113144292 ] } },
{ "type": "Feature", "properties": { "park_name": "33rd and Wallace Playground", "dpp_asset_id": null, "program_type": "PPR_REC", "site_class": "B", "building": "Y", "gym": "N", "label_number": null, "comments": "", "data_source": "Programs 10/2025", "objectid": 165 }, "geometry": { "type": "Point", "coordinates": [ -75.190812621718706, 39.965036719129699 ] } },
{ "type": "Feature", "properties": { "park_name": "Fisher Park", "dpp_asset_id": null, "program_type": "PPR_REC", "site_class": "B", "building": "Y", "gym": "N", "label_number": null, "comments": "", "data_source": "Programs 10/2025", "objectid": 166 }, "geometry": { "type": "Point", "coordinates": [ -75.131066112635594, 40.043547654749702 ] } },
{ "type": "Feature", "properties": { "park_name": "Senator William Vincent Mullin Playground", "dpp_asset_id": null, "program_type": "PPR_REC", "site_class": "B", "building": "Y", "gym": "N", "label_number": null, "comments": "", "data_source": "Programs 10/2025", "objectid": 167 }, "geometry": { "type": "Point", "coordinates": [ -75.042122335979698, 40.032231393779199 ] } },
{ "type": "Feature", "properties": { "park_name": "Thomas P Stokley Recreation Center", "dpp_asset_id": null, "program_type": "PPR_REC", "site_class": "B", "building": "N", "gym": "N", "label_number": null, "comments": "No Programmable Building on site", "data_source": "Programs 10/2025", "objectid": 168 }, "geometry": { "type": "Point", "coordinates": [ -75.107090916135903, 39.982133072286999 ] } },
{ "type": "Feature", "properties": { "park_name": "James Otis Ford Playground", "dpp_asset_id": null, "program_type": "POOL", "site_class": "S", "building": "N", "gym": "N", "label_number": null, "comments": "Pool only seasonally staffed by PPR.", "data_source": "Programs 10/2025", "objectid": 169 }, "geometry": { "type": "Point", "coordinates": [ -75.157355297410106, 39.923048233803598 ] } },
{ "type": "Feature", "properties": { "park_name": "Morton Playground", "dpp_asset_id": null, "program_type": "PPR_REC", "site_class": "B", "building": "Y", "gym": "N", "label_number": null, "comments": null, "data_source": "Programs 10/2025", "objectid": 170 }, "geometry": { "type": "Point", "coordinates": [ -75.174265547179999, 40.039704591292399 ] } },
{ "type": "Feature", "properties": { "park_name": "George Connell Park", "dpp_asset_id": null, "program_type": "PPR_REC", "site_class": "B", "building": "Y", "gym": "N", "label_number": null, "comments": null, "data_source": "Programs 10/2025", "objectid": 171 }, "geometry": { "type": "Point", "coordinates": [ -75.230404423922195, 39.923336347721602 ] } }
]
}
